ID,MainActivityType,InstallationOrAircraftOperatorID,InstallationNameOrAircraftOperatorCode,LatestComplianceCode,MainActivityTypeCode,PermitOrPlanID,AccountHolderName,PermitOrPlanDate,NationalAdministratorCode,NationalAdministrator,AMOwnershipFirstYear,AMOwnershipLastYear,FirstYearOfEmissions,LastYearOfEmissions,Address1,ZipCode,City,2006,2007,2008,2009,2010,2011,2012,2013,2014,2015,2016,2017,2018,2019,2020,2021,2022,2023,2024,2025,2026,2027,2028,2029,2030,Latitude,Longitude,Link
BE11,Production of pig iron or steel,11,ArcelorMittal Gent,A,24,VL201,ArcelorMittal Belgium,2005-04-01,BE,Belgium,,,2005,2012,John Kennedylaan 51,9042,Gent,5238916,4686947,4556264,3415187,4386583,4017146,3777669,,,,,,,,,,,,,,,,,,,51.1836104,3.8313483,https://ec.europa.eu/clima/ets/ohaDetails.do?accountID=94048&action=all&languageCode=en&registryCode=BE
BE105,Production or processing of ferrous metals,105,Eurogal,A,25,WAI150P046,ArcelorMittal Belgium,2005-04-01,BE,Belgium,,,2005,,Chaussée de Ramioul 50,4400,Ivoz Ramet,28348,26095,23765,19263,21822,23321,20950,23080,24091,27799,27717,27974,28978,26754,24295,27378,,,,,,,,,,50.5849529,5.4374918,https://ec.europa.eu/clima/ets/ohaDetails.do?accountID=94172&action=all&languageCode=en&registryCode=BE
BE106,Production or processing of ferrous metals,106,Ferbatil (API),A,25,WAI146P042,LIBERTY LIEGE - DUDELANGE (BE),2005-04-01,BE,Belgium,,2018,2005,,"rue des Martyrs, 143",4420,Tilleur,13152,12153,8518,9550,10479,8719,10981,13677,13740,38030,40672,38644,37780,,,,,,,,,,,,,50.6164586,5.5315613,https://ec.europa.eu/clima/ets/ohaDetails.do?accountID=94173&action=all&languageCode=en&registryCode=BE
BE107,Production or processing of ferrous metals,107,Ramet - Galvanisation,A,25,WAI148P044,ArcelorMittal Belgium,2005-04-01,BE,Belgium,,,2005,2017,rue Sompré,4400,Ivoz Ramet,10940,10472,10755,8373,11441,10433,10333,10504,11591,10926,12174,,,,,,,,,,,,,,,50.5860208,5.4470021,https://ec.europa.eu/clima/ets/ohaDetails.do?accountID=94174&action=all&languageCode=en&registryCode=BE
BE108,Production or processing of ferrous metals,108,Kessales,A,25,WAI147P041,ArcelorMittal Belgium,2005-04-01,BE,Belgium,,,2005,,rue Gustave Baivy,4101,Jemeppe-sur-Meuse,24453,26469,27209,21965,27201,28589,21169,25130,26432,24934,24705,31064,32031,27387,24445,27820,,,,,,,,,,50.6126867,5.4974708,https://ec.europa.eu/clima/ets/ohaDetails.do?accountID=94175&action=all&languageCode=en&registryCode=BE
BE109,Production or processing of ferrous metals,109,ARCELORMITTAL - site de Ramet - IVOZ-RAMET,A,25,WAI149P045,ArcelorMittal Belgium,2005-04-01,BE,Belgium,,,2005,,rue Sompré,4400,Ivoz Ramet,26957,20182,21839,13568,19331,15741,7395,12535,11503,12256,12810,30412,30290,30560,30409,33469,,,,,,,,,,50.5860208,5.4470021,https://ec.europa.eu/clima/ets/ohaDetails.do?accountID=94176&action=all&languageCode=en&registryCode=BE
BE110,Production of pig iron or steel,110,ArcelorMittal Liège Upstream Aciérie LD+CC Chertal,A,24,WAI007P064,ArcelorMittal Belgium,2005-04-01,BE,Belgium,,,2005,2012,Pont de Wandre,4683,Vivegnis,256117,286345,342233,61563,161045,157159,3170,,,,,,,,,,,,,,,,,,,50.6742315,5.6432623,https://ec.europa.eu/clima/ets/ohaDetails.do?accountID=94177&action=all&languageCode=en&registryCode=BE
BE111,Production of pig iron or steel,111,ArcelorMittal Liège Upstream Agglomération Seraing,A,24,WAI013P035,ArcelorMittal Belgium,2005-04-01,BE,Belgium,,,2005,2012,Place des hauts-Fourneaux,4102,Ougrée,577765,720506,736849,90713,395569,320237,0,,,,,,,,,,,,,,,,,,,50.6039503,5.5422622,https://ec.europa.eu/clima/ets/ohaDetails.do?accountID=94178&action=all&languageCode=en&registryCode=BE
BE112,Combustion of fuels,112,ArcelorMittal Liège Upstream Energie Ougrée,A,20,WAI010P038,ArcelorMittal Belgium,2005-04-01,BE,Belgium,,,2005,2015,Place des Hauts-Fourneaux,4102,Ougrée,537927,521301,562203,186920,422486,360501,79392,13534,,,,,,,,,,,,,,,,,,50.6039503,5.5422622,https://ec.europa.eu/clima/ets/ohaDetails.do?accountID=94179&action=all&languageCode=en&registryCode=BE
BE113,Combustion of fuels,113,ArcelorMittal Liège Upstream Energie Seraing,A,20,WAI012P039,ArcelorMittal Belgium,2005-04-01,BE,Belgium,,,2005,2015,Rue Ferrer et Rue de la Vieille Espérance,4100,Seraing,735901,847936,1279867,275462,402647,400023,24216,22300,45946,2720,,,,,,,,,,,,,,,,50.603147,5.5044998,https://ec.europa.eu/clima/ets/ohaDetails.do?accountID=94180&action=all&languageCode=en&registryCode=BE
BE114,Production of pig iron or steel,114,ArcelorMittal Liège Upstream Cokerie Seraing,A,24,WAI005P034,ArcelorMittal Belgium,2005-04-01,BE,Belgium,,,2005,2014,place des Hauts-Fourneaux,4102,Ougrée,135465,128978,118196,79700,100633,83898,63815,129274,57709,,,,,,,,,,,,,,,,,50.6039503,5.5422622,https://ec.europa.eu/clima/ets/ohaDetails.do?accountID=94181&action=all&languageCode=en&registryCode=BE
BE115,Production or processing of ferrous metals,115,Galva prépeint - Flémalle,A,25,WAI085P043,LIBERTY LIEGE - DUDELANGE (BE),2005-04-01,BE,Belgium,,2018,2005,,quai de Halage 10,4400,Flémalle,47974,47293,44470,28335,36470,32705,24694,23721,17639,19925,27992,30399,38144,,,,,,,,,,,,,50.593135,5.4584395,https://ec.europa.eu/clima/ets/ohaDetails.do?accountID=94182&action=all&languageCode=en&registryCode=BE
BE116,Installations for the production of pig iron or steel (primary or secondary fusion) including continuous casting,116,ArcelorMittal Liège Upstream HF6 Seraing,A,5,WAI011P037,ArcelorMittal Belgium,2005-04-01,BE,Belgium,,,2005,2012,Rue Ferrer et Rue de la Vieille Espérance,4100,Seraing,,,318185,166,,,,,,,,,,,,,,,,,,,,,,50.603147,5.5044998,https://ec.europa.eu/clima/ets/ohaDetails.do?accountID=94183&action=all&languageCode=en&registryCode=BE
BE117,Production of pig iron or steel,117,ARCELORMITTAL LIEGE - HFB OUGREE et HF SERAING  6,A,24,WAI309P146,ArcelorMittal Belgium,2005-04-01,BE,Belgium,,,2005,2012,place des Hauts-Fourneaux,4102,Ougrée,607901,665542,501589,151190,391465,339944,4670,,,,,,,,,,,,,,,,,,,50.6039503,5.5422622,https://ec.europa.eu/clima/ets/ohaDetails.do?accountID=94184&action=all&languageCode=en&registryCode=BE
BE118,Production of pig iron or steel,118,ArcelorMittal Liège Upstream Train à bandes Cherta,A,24,WAI008P040,ArcelorMittal Belgium,2005-04-01,BE,Belgium,,,2005,2013,Pont de Wandre,4683,Vivegnis,132800,125011,163999,52847,130195,142255,98639,140,,,,,,,,,,,,,,,,,,50.6742315,5.6432623,https://ec.europa.eu/clima/ets/ohaDetails.do?accountID=94185&action=all&languageCode=en&registryCode=BE
BE203912,Production of pig iron or steel,203912,ArcelorMittal Gent 1,A,24,VL201A,ArcelorMittal Belgium,2013-01-01,BE,Belgium,,,2013,2020,J. Kennedylaan 51,9042,Gent,,,,,,,,4053871,4053039,3987758,4528865,4373253,4461978,4329659,3462111,,,,,,,,,,,51.1836104,3.8313483,https://ec.europa.eu/clima/ets/ohaDetails.do?accountID=109273&action=all&languageCode=en&registryCode=BE
BE203913,Production of pig iron or steel,203913,ArcelorMittal Gent 2,A,24,VL201B,ArcelorMittal Belgium,2013-01-01,BE,Belgium,,,2013,2020,J. Kennedylaan 51,9042,Gent,,,,,,,,,,,,,,,,,,,,,,,,,,51.1836104,3.8313483,https://ec.europa.eu/clima/ets/ohaDetails.do?accountID=109272&action=all&languageCode=en&registryCode=BE
BE215060,Production of pig iron or steel,215060,ArcelorMittal Gent,A,24,VL201,ArcelorMittal Belgium,2021-01-01,BE,Belgium,,,2021,,J. Kennedylaan 51,9042,Gent,,,,,,,,,,,,,,,,3985551,,,,,,,,,,51.1836104,3.8313483,https://ec.europa.eu/clima/ets/ohaDetails.do?accountID=1547625&action=all&languageCode=en&registryCode=BE
CZ172,Installations for the production of pig iron or steel (primary or secondary fusion) including continuous casting,172,ArcelorMittal Ostrava - závod 12 - Vysoké pece,A,5,CZ-0268-05,Liberty Ostrava a.s.,2005-04-08,CZ,Czech Republic,,2018,2005,2011,Vratimovská 142,70702,Ostrava-Kunčice,1960096,2087275,,1167627,,,,,,,,,,,,,,,,,,,,,,49.7948034,18.30363,https://ec.europa.eu/clima/ets/ohaDetails.do?accountID=96256&action=all&languageCode=en&registryCode=CZ
CZ4,Combustion installations with a rated thermal input exceeding 20 MW,4,ArcelorMittal Tubular Products Karviná,A,1,CZ-0021-05,ArcelorMittal Tubular Products Karviná a.s.,2005-04-10,CZ,Czech Republic,,,2005,,Rudé armády 471,73323,Karviná,11835,10433,9547,7577,8811,7855,8352,7984,6730,5760,5780,4996,5430,3981,3843,4581,,,,,,,,,,49.8729669,18.5469583,https://ec.europa.eu/clima/ets/ohaDetails.do?accountID=96452&action=all&languageCode=en&registryCode=CZ
CZ24,Production of pig iron or steel,24,ArcelorMittal Frýdek-Místek,A,24,CZ-0053-05,Liberty Ostrava a.s.,2005-03-16,CZ,Czech Republic,,2017,2005,2017,Křižíkova 1377,73805,Frýdek-Místek,49934,45403,39056,39746,47559,38044,40284,50946,43716,43598,46437,12488,,,,,,,,,,,,,,49.6927395,18.332284,https://ec.europa.eu/clima/ets/ohaDetails.do?accountID=96485&action=all&languageCode=en&registryCode=CZ
FR485,Production of pig iron or steel,485,ArcelorMittal France- Florange,A,24,6201364,ARCELORMITTAL FRANCE,1996-04-09,FR,France,,,2005,,17 Allée des Tilleuls,57190,Florance,4737538,4321829,4154865,1657210,3095678,2472037,280855,530710,443623,245342,423646,255680,387818,324479,255222,271332,,,,,,,,,,49.3258346,6.1317195,https://ec.europa.eu/clima/ets/ohaDetails.do?accountID=94399&action=all&languageCode=en&registryCode=FR
FR481,Installations for the production of pig iron or steel (primary or secondary fusion) including continuous casting,481,ARCELORMITTAL GANDRANGE,A,5,6201286,BERSILLON,1993-08-26,FR,France,,,2005,2010,Site Industriel de Gandrange,57175,Gandrange,236087,237800,179001,26110,23405,,,,,,,,,,,,,,,,,,,,,49.2713699,6.1326556,https://ec.europa.eu/clima/ets/ohaDetails.do?accountID=94415&action=all&languageCode=en&registryCode=FR
FR34,Combustion of fuels,34,ArcelorMittal France- Montataire,A,20,5101363,ARCELORMITTAL FRANCE,1984-10-19,FR,France,,,2005,,Route de Saint Leu,60160,Montataire,71407,67830,61236,44905,54785,53921,48986,54897,60455,60906,68857,68912,65047,59828,42994,57160,,,,,,,,,,49.248517,2.4422248,https://ec.europa.eu/clima/ets/ohaDetails.do?accountID=94667&action=all&languageCode=en&registryCode=FR
FR956,Combustion of fuels,956,ArcelorMittal France- Dunkerque,A,20,7000956,ARCELORMITTAL FRANCE,1986-03-31,FR,France,,,2005,,Site de Dunkerque - Port 3031,59381,DUNKERQUE CEDEX 1,11578949,12059456,11261849,9162850,10174067,10671502,11229769,7859086,7731790,7213770,7280824,8186864,8052937,7467043,5851655,7274573,,,,,,,,,,51.0418464,2.3733285,https://ec.europa.eu/clima/ets/ohaDetails.do?accountID=95062&action=all&languageCode=en&registryCode=FR
FR955,Production of pig iron or steel,955,ArcelorMittal France- Mardyck,A,24,7000955,ARCELORMITTAL FRANCE,2003-10-27,FR,France,,,2005,,Site de Mardyck - 3081 Route de Spycker,59792,GRANDE SYNTHE CEDEX,27512,25334,22891,20257,15751,16211,16294,60731,65487,65007,67076,69536,63969,67452,59567,67840,,,,,,,,,,50.997345,2.29026,https://ec.europa.eu/clima/ets/ohaDetails.do?accountID=95066&action=all&languageCode=en&registryCode=FR
FR628,Production of pig iron or steel,628,ARCELORMITTAL MEDITERRANEE,A,24,6401052,ARCELORMITTAL MEDITERRANEE,2005-01-01,FR,France,,,2005,,Zone Industrielle,13270,Fos sur Mer,8725948,7950830,6462343,4726806,6133536,5429074,7140687,7988487,7916572,7861098,7237403,7934947,7460796,7659332,5802758,6902092,,,,,,,,,,43.4745483,4.9143239,https://ec.europa.eu/clima/ets/ohaDetails.do?accountID=95098&action=all&languageCode=en&registryCode=FR
FR555,Combustion of fuels,555,ARCELORMITTAL FRANCE - Basse Indre,A,20,6301117,ARCELORMITTAL FRANCE,1974-07-16,FR,France,,,2005,,"Route des Sables, 5 -",44610,INDRE,16732,18734,12781,13428,10152,6125,11574,20095,20167,19681,19593,18499,18842,18382,16474,24352,,,,,,,,,,46.6707535,0.9812967,https://ec.europa.eu/clima/ets/ohaDetails.do?accountID=95450&action=all&languageCode=en&registryCode=FR
FR206065,Production or processing of ferrous metals,206065,ARCELORMITTAL GANDRANGE AMNEVILLE,A,25,6201286,ARCELORMITTAL GANDRANGE,2010-01-01,FR,France,,,2013,,Rue de l'Usine,57360,Amneville,,,,,,,,20395,27623,23333,26947,27080,24146,19546,16649,25758,,,,,,,,,,49.2592378,6.1459908,https://ec.europa.eu/clima/ets/ohaDetails.do?accountID=111452&action=all&languageCode=en&registryCode=FR
FR206303,Production or processing of ferrous metals,206303,Arcelormittal Construction France- Site 1,A,25,6200776,ARCELORMITTAL CONSTRUCTION France,2003-12-11,FR,France,,,2013,,Zone Industrielle - Site 1,55800,Contrisson,,,,,,,,19164,23005,25096,25030,25328,24636,24936,25168,27315,,,,,,,,,,48.802939,4.954217,https://ec.europa.eu/clima/ets/ohaDetails.do?accountID=111782&action=all&languageCode=en&registryCode=FR
FR206305,Production or processing of ferrous metals,206305,ARCELORMITTAL CONSTRUCTION France- Site 2,A,25,6204558,ARCELORMITTAL CONSTRUCTION France,2009-05-19,FR,France,,,2013,,Zone Industrielle- Site 2,55800,Contrisson,,,,,,,,10875,12229,12276,12101,13367,13321,13187,11673,12106,,,,,,,,,,48.8105888,4.9585723,https://ec.europa.eu/clima/ets/ohaDetails.do?accountID=111783&action=all&languageCode=en&registryCode=FR
FR207242,Combustion of fuels,207242,ARCELORMITTAL ATLANTIQUE ET LORRAINE Basse-Indre,C,20,6301117,ARCELORMITTAL ATLANTIQUE ET LORRAINE,1974-07-16,FR,France,,,2015,2015,Route des Sables 5 - RD 107,44610,INDRE,,,,,,,,,,,,,,,,,,,,,,,,,,46.6613966,1.4482662,https://ec.europa.eu/clima/ets/ohaDetails.do?accountID=112909&action=all&languageCode=en&registryCode=FR
DE4150,Production or processing of ferrous metals,4150,Kaltwalzwerk,A,25,14225-0016,ArcelorMittal Eisenhüttenstadt GmbH,2011-01-01,DE,Germany,,,2011,,Werkstrasse 1,15890,Eisenhüttenstadt,,,,,,19443,20087,22833,21569,21117,23290,25353,24831,25659,23502,24300,,,,,,,,,,52.1611794,14.6288292,https://ec.europa.eu/clima/ets/ohaDetails.do?accountID=103473&action=all&languageCode=en&registryCode=DE
DE1228,Combustion of fuels,1228,Block 4 Bremen,A,20,14310-0672,ArcelorMittal Bremen GmbH,2005-01-01,DE,Germany,,,2005,,"Auf den Delben 35, 28237 Bremen",28215,Bremen,1533072,1268741,988054,623513,1012654,928296,237244,2185868,2713278,2515126,2845273,2322631,2481393,2463056,1751452,2519316,,,,,,,,,,53.139791,8.7120512,https://ec.europa.eu/clima/ets/ohaDetails.do?accountID=104203&action=all&languageCode=en&registryCode=DE
DE185,"Production of lime, or calcination of dolomite/magnesite",185,Kalkbrennmahlanlage,A,30,14240-0073,ArcelorMittal Eisenhüttenstadt GmbH,2005-01-01,DE,Germany,,,2005,,Werkstraße 1,15890,Eisenhüttenstadt,167828,155281,132638,96145,133254,133444,112293,122035,117430,147863,130871,152537,153036,142501,127174,153749,,,,,,,,,,52.1611794,14.6288292,https://ec.europa.eu/clima/ets/ohaDetails.do?accountID=104205&action=all&languageCode=en&registryCode=DE
DE1364,Combustion of fuels,1364,Dampfkesselanlage Bremen,A,20,14310-0819,ArcelorMittal Bremen GmbH,2005-01-01,DE,Germany,,,2005,,Carl-Benz- Straße 30,28237,Bremen,72779,82266,86478,116136,101299,107403,123759,141444,120792,103271,82346,62586,83844,83363,84813,51635,,,,,,,,,,53.1409357,8.6834813,https://ec.europa.eu/clima/ets/ohaDetails.do?accountID=104393&action=all&languageCode=en&registryCode=DE
DE44,Production of pig iron or steel,44,Stahlwerk Duisburg,A,24,14220-0007,ArcelorMittal Hochfeld GmbH,2005-01-01,DE,Germany,,,2005,,Vohwinkelstr. 107,47137,Duisburg,267586,272139,257083,128827,248179,237782,237189,243731,206954,244505,266524,221836,230041,185066,197811,217057,,,,,,,,,,51.4581606,6.7434963,https://ec.europa.eu/clima/ets/ohaDetails.do?accountID=105259&action=all&languageCode=en&registryCode=DE
DE45,Production of coke,45,Kokerei Prosper (ohne Kesselhaus),A,22,14220-0008,ArcelorMittal Bremen GmbH,2005-01-01,DE,Germany,,,2005,,Prosperstraße 350,46238,Bottrop,359773,413877,408302,263967,374692,379959,340885,337902,301683,323528,439947,410156,396389,429798,304758,309103,,,,,,,,,,51.5209626,6.970655,https://ec.europa.eu/clima/ets/ohaDetails.do?accountID=105266&action=all&languageCode=en&registryCode=DE
DE56,Production of pig iron or steel,56,Einheitliche Anlage Stahlwerk Dillinger Hütte,A,24,14220-0019,Aktien-Gesellschaft der Dillinger Hüttenwerke,2005-01-01,DE,Germany,,,2005,,Werkstraße 1,66763,Dillingen,423813,467673,444597,328649,376035,424216,396851,347786,413546,415452,411923,441634,407136,395140,324213,400975,,,,,,,,,,49.3552761,6.7313863,https://ec.europa.eu/clima/ets/ohaDetails.do?accountID=105336&action=all&languageCode=en&registryCode=DE
DE60,Production of pig iron or steel,60,Einheitliche Anlage Bremen,A,24,14220-0024,ArcelorMittal Bremen GmbH,2005-01-01,DE,Germany,,,2005,,Carl-Benz- Straße 30,28237,Bremen,2854331,2984047,2032710,1869210,2245809,2104671,2101901,2467212,2446077,2809015,2619217,2544504,2621007,2177297,2348808,2267241,,,,,,,,,,53.1409357,8.6834813,https://ec.europa.eu/clima/ets/ohaDetails.do?accountID=105381&action=all&languageCode=en&registryCode=DE
DE67,Production of pig iron or steel,67,Elektrostahlwerk,A,24,14220-0033,ArcelorMittal Hamburg GmbH,2005-01-01,DE,Germany,,,2005,,Dradenaustraße 33,21129,Hamburg,100849,97972,88790,92880,101094,96834,92292,93572,90002,90164,83434,84280,82889,68762,74180,74526,,,,,,,,,,53.5247466,9.900063,https://ec.europa.eu/clima/ets/ohaDetails.do?accountID=105429&action=all&languageCode=en&registryCode=DE
DE1891,Production or processing of ferrous metals,1891,Verzinkungsanlage,A,25,14225-0001,ArcelorMittal Eisenhüttenstadt GmbH,2008-01-01,DE,Germany,,,2008,,Werkstrasse 1,15890,Eisenhüttenstadt,,,62432,53047,60559,42080,44345,42775,42283,45622,44386,47113,47793,46650,40785,46985,,,,,,,,,,52.1611794,14.6288292,https://ec.europa.eu/clima/ets/ohaDetails.do?accountID=105437&action=all&languageCode=en&registryCode=DE
DE1892,Production or processing of ferrous metals,1892,Warmwalzwerk,A,25,14225-0004,ArcelorMittal Eisenhüttenstadt GmbH,2008-01-01,DE,Germany,,,2008,,Werkstrasse 1,15890,Eisenhüttenstadt,,,99900,76704,96644,96693,99218,108608,111898,107279,116551,118259,125250,114543,103330,112284,,,,,,,,,,52.1611794,14.6288292,https://ec.europa.eu/clima/ets/ohaDetails.do?accountID=105438&action=all&languageCode=en&registryCode=DE
DE70,Production of pig iron or steel,70,Roheisen-und Stahlerzeugung,A,24,14220-0038,ArcelorMittal Eisenhüttenstadt GmbH,2005-01-01,DE,Germany,,,2005,,Werkstraße 1,15890,Eisenhüttenstadt,1951193,1852048,1717196,1193338,1395349,1262814,991281,1190576,1413237,1621292,1462575,1546670,1446767,1473970,1501188,1701551,,,,,,,,,,52.1611794,14.6288292,https://ec.europa.eu/clima/ets/ohaDetails.do?accountID=105456&action=all&languageCode=en&registryCode=DE
DE4112,Combustion of fuels,4112,Kesselanlage Kokerei Prosper III,A,20,14310-1464,ArcelorMittal Bremen GmbH,2008-11-01,DE,Germany,,,2008,,Prosperstraße 350,46238,Bottrop,,,2913,30940,31274,30740,31147,33391,30409,31789,34300,33823,34836,33622,30893,30827,,,,,,,,,,51.5209626,6.970655,https://ec.europa.eu/clima/ets/ohaDetails.do?accountID=105470&action=all&languageCode=en&registryCode=DE
DE202555,Production or processing of ferrous metals,202555,Drahtwalzwerk Hochfeld,A,25,14226-0033,ArcelorMittal Hochfeld GmbH,2013-01-01,DE,Germany,,,2013,2014,Vohwinkeslstrasse 107,47107,Duisburg,,,,,,,,16744,1448,,,,,,,,,,,,,,,,,51.4581606,6.7434963,https://ec.europa.eu/clima/ets/ohaDetails.do?accountID=108102&action=all&languageCode=en&registryCode=DE
DE202863,Production or processing of ferrous metals,202863,Walzwerk Ruhrort,A,25,14226-0023,ArcelorMittal Hochfeld GmbH,2013-01-01,DE,Germany,,,2013,,Vohwinkelstrasse 107,47137,Duisburg,,,,,,,,45644,42021,43313,49892,42506,46175,31099,20536,21791,,,,,,,,,,51.4581606,6.7434963,https://ec.europa.eu/clima/ets/ohaDetails.do?accountID=108141&action=all&languageCode=en&registryCode=DE
DE204192,Production or processing of ferrous metals,204192,Bregal 1,A,25,14226-0074,ArcelorMittal Bremen GmbH,2013-01-01,DE,Germany,,,2013,,Carl-Benz-Straße 30,28237,Bremen,,,,,,,,24658,26435,26488,26529,26751,25557,24743,20615,21995,,,,,,,,,,53.1409357,8.6834813,https://ec.europa.eu/clima/ets/ohaDetails.do?accountID=109610&action=all&languageCode=en&registryCode=DE
DE204194,Production or processing of ferrous metals,204194,Kaltwalzwerk,A,25,14226-0038,ArcelorMittal Bremen GmbH,2013-01-01,DE,Germany,,,2013,,Carl-Benz-Straße 30,28237,Bremen,,,,,,,,18624,20317,20093,21762,22968,22843,19747,17229,21290,,,,,,,,,,53.1409357,8.6834813,https://ec.europa.eu/clima/ets/ohaDetails.do?accountID=109611&action=all&languageCode=en&registryCode=DE
DE204543,Production or processing of ferrous metals,204543,Reduktionsanlage,A,25,14220-0046,ArcelorMittal Hamburg GmbH,2013-01-01,DE,Germany,,,2013,,Dradenaustraße 33,21129,Hamburg,,,,,,,,252667,279937,265071,290729,303834,273096,235508,266025,241974,,,,,,,,,,53.5247466,9.900063,https://ec.europa.eu/clima/ets/ohaDetails.do?accountID=110087&action=all&languageCode=en&registryCode=DE
DE204544,Production or processing of ferrous metals,204544,Walzwerk,A,25,14226-0080,ArcelorMittal Hamburg GmbH,2013-01-01,DE,Germany,,,2013,,Dradenaustraße 33,21129,Hamburg,,,,,,,,49086,49580,48464,49222,41933,44761,42552,46899,49199,,,,,,,,,,53.5247466,9.900063,https://ec.europa.eu/clima/ets/ohaDetails.do?accountID=110094&action=all&languageCode=en&registryCode=DE
DE206226,Production or processing of ferrous metals,206226,Drahtwalzwerk Standort Ruhrort,A,25,14226-0094,ArcelorMittal Hochfeld GmbH,2013-01-01,DE,Germany,,,2013,,Vohwinkelstraße 107,47137,Duisburg,,,,,,,,16622,28983,32011,31611,32904,31951,31854,32707,33088,,,,,,,,,,51.4581606,6.7434963,https://ec.europa.eu/clima/ets/ohaDetails.do?accountID=111757&action=all&languageCode=en&registryCode=DE
IT515,Production of pig iron or steel,515,Stabilimento di Taranto,A,24,IT-A-762,Acciaierie d'Italia S.p.A.,2006-04-04,IT,Italy,2018,,2005,,"Via APPIA Km 648, SNC",74100,TARANTO,,,,,,,,,,,,,6069617,5898625,4834123,5246390,,,,,,,,,,40.4919978,17.2147064,https://ec.europa.eu/clima/ets/ohaDetails.do?accountID=102266&action=all&languageCode=en&registryCode=IT
IT72,Production or processing of ferrous metals,72,Stabilimento di Novi Ligure,A,25,IT-A-89,Acciaierie d'Italia S.p.A.,2006-04-04,IT,Italy,2018,,2005,,"Via Boscomarengo, 1",15067,NOVI LIGURE,,,,,,,,,,,,,94329,78816,53894,88609,,,,,,,,,,44.7726189,8.7673497,https://ec.europa.eu/clima/ets/ohaDetails.do?accountID=102269&action=all&languageCode=en&registryCode=IT
IT86,Production or processing of ferrous metals,86,Stabilimento di Genova Comigliano,A,25,IT-A-106,Acciaierie d'Italia S.p.A.,2006-04-04,IT,Italy,2018,,2005,,"Via Pionieri e Aviatori d'Italia, 8",16154,GENOVA,,,,,,,,,,,,,72831,65402,55874,71899,,,,,,,,,,44.4198611,8.8573349,https://ec.europa.eu/clima/ets/ohaDetails.do?accountID=102272&action=all&languageCode=en&registryCode=IT
IT511,Combustion of fuels,511,ArcelorMittal Italy Energy srl,A,20,IT-A-758,AdI Energia S.r.l,2006-04-04,IT,Italy,2019,,2005,,"Via Appia Km 648, SNC",74123,TARANTO,,,,,,,,,,,,,,4351677,3442085,4405242,,,,,,,,,,40.4919978,17.2147064,https://ec.europa.eu/clima/ets/ohaDetails.do?accountID=102989&action=all&languageCode=en&registryCode=IT
IT205245,Combustion of fuels,205245,ArcelorMittal Piombino S.p.A.,A,20,IT-A-2333,LIBERTY MAGONA S.R.L.,2013-01-01,IT,Italy,,2018,2013,,Via di Portovecchio 34,57025,Piombino (LI),,,,,,,,22710,27457,34053,37697,39557,40082,,,,,,,,,,,,,42.9285118,10.5336716,https://ec.europa.eu/clima/ets/ohaDetails.do?accountID=110625&action=all&languageCode=en&registryCode=IT
LU11,Production of pig iron or steel,11,ArcelorMittal Rodange et Schifflange-Site Schiffl,C,24,EQE200511,ArcelorMittal Rodange et Schifflange- Site de Schifflange,2006-06-08,LU,Luxembourg,,,2005,2012,"11, Boulevard Aloyse Meyer",4221,Esch/Alzette,72306,81276,68791,64250,64696,47502,151,,,,,,,,,,,,,,,,,,,49.5073758,5.9901753,https://ec.europa.eu/clima/ets/ohaDetails.do?accountID=103362&action=all&languageCode=en&registryCode=LU
LU12,Production of pig iron or steel,12,ArcelorMittal Belval et Differdange - site Differd,A,24,EQE-2013-12-01,ArcelorMittal Belval et Differdange,2006-06-08,LU,Luxembourg,,,2005,,Rue Emile Mark,4503,Differdange,203597,175836,104504,83338,113123,106035,113121,177070,195614,201131,196349,176085,182906,168660,149635,158843,,,,,,,,,,49.5227814,5.895576,https://ec.europa.eu/clima/ets/ohaDetails.do?accountID=103363&action=all&languageCode=en&registryCode=LU
LU13,Production of pig iron or steel,13,ArcelorMittal Belval & Differdange-Site de Belval,A,24,EQE-2013-13-01,ArcelorMittal Belval et Differdange,2006-06-08,LU,Luxembourg,,,2005,,Site d'Esch-Belval,4008,Esch/Alzette,164930,178515,49725,39208,45284,59967,66267,185176,196275,183931,185696,200042,192504,190746,177229,182441,,,,,,,,,,49.4998982,5.9535519,https://ec.europa.eu/clima/ets/ohaDetails.do?accountID=103364&action=all&languageCode=en&registryCode=LU
LU205662,Production or processing of ferrous metals,205662,Dudelange,A,25,EOE-NEW22-2013,Libertysteel Dudelange,2013-01-01,LU,Luxembourg,,2018,2013,,ZI wolser,L-3401,dudelange,,,,,,,,28644,28580,28300,29487,29055,29354,,,,,,,,,,,,,49.5054134,6.089412,https://ec.europa.eu/clima/ets/ohaDetails.do?accountID=110931&action=all&languageCode=en&registryCode=LU
LU205713,Production or processing of ferrous metals,205713,AM Rodange et Schifflange - Site de Rodange,A,25,EQE-2013-21,ArcelorMittal Belval et Differdange,2013-01-01,LU,Luxembourg,,,2013,,2 rue de l'Industrie,L-4823,Rodange,,,,,,,,18951,20490,19758,19699,20389,22515,16982,16664,19307,,,,,,,,,,49.5512294,5.8424059,https://ec.europa.eu/clima/ets/ohaDetails.do?accountID=111112&action=all&languageCode=en&registryCode=LU
PL659,Combustion of fuels,659,KOTŁOWNIA,A,20,PL-0662-05,ArcelorMittal Warszawa Sp. z o.o.,2005-01-01,PL,Poland,,,2005,,KASPROWICZA 132,01-949,WARSZAWA,14678,12277,11435,7833,10532,10567,9557,9633,8936,8871,9109,8975,9261,8767,8862,10332,,,,,,,,,,52.2926243,20.9277718,https://ec.europa.eu/clima/ets/ohaDetails.do?accountID=92652&action=all&languageCode=en&registryCode=PL
PL660,Production of pig iron or steel,660,STALOWNIA,A,24,PL-0663-05,ArcelorMittal Warszawa Sp. z o.o.,2005-01-01,PL,Poland,,,2005,,KASPROWICZA 132,01-949,WARSZAWA,64007,65622,67456,40229,53029,61209,55635,52290,49745,49516,51801,62975,53890,50353,48871,54484,,,,,,,,,,52.2926243,20.9277718,https://ec.europa.eu/clima/ets/ohaDetails.do?accountID=92656&action=all&languageCode=en&registryCode=PL
PL367,Production of coke,367,KOKSOWNIA ARCELORMITTAL KRAKÓW,A,22,PL-0653-05,ArcelorMittal Poland S.A.,2005-01-01,PL,Poland,,,2005,,Ujastek 1,30-969,Kraków,201404,186511,162654,74393,90960,80472,79267,89450,93232,95146,99131,100720,96586,100668,88518,115213,,,,,,,,,,50.0866911,20.0654551,https://ec.europa.eu/clima/ets/ohaDetails.do?accountID=92847&action=all&languageCode=en&registryCode=PL
PL370,Production of coke,370,KOKSOWNIA ARCELORMITTAL ZDZIESZOWICE,A,22,PL-0656-05,ArcelorMittal Poland S.A.,2005-01-01,PL,Poland,,,2005,,Powstańców Śląskich 1,47-330,Zdzieszowice,1588920,1752999,1702792,1108563,1396914,1288114,1049569,973924,973927,922576,871696,916272,815052,533006,416596,520424,,,,,,,,,,50.421521,18.129973,https://ec.europa.eu/clima/ets/ohaDetails.do?accountID=92857&action=all&languageCode=en&registryCode=PL
PL374,Metal ore roasting or sintering,374,SPIEKALNIA ARCELORMITTAL KRAKÓW,A,23,PL-0666-05,ArcelorMittal Poland S.A.,2005-01-01,PL,Poland,,,2005,2017,Ujastek 1,30-969,Kraków,1895596,1822112,527599,318931,204055,270243,55893,,,,,,,,,,,,,,,,,,,50.0866911,20.0654551,https://ec.europa.eu/clima/ets/ohaDetails.do?accountID=92877&action=all&languageCode=en&registryCode=PL
PL375,Metal ore roasting or sintering,375,SPIEKALNIA ARCELORMITTAL DĄBROWA GÓRNICZA,A,23,PL-0667-05,ArcelorMittal Poland S.A.,2005-01-01,PL,Poland,,,2005,,Al. Piłsudskiego 92,41-308,Dąbrowa Górnicza,4138573,4383775,1128417,832166,1240364,1293915,1463065,1524360,1665911,1682177,1525360,1566704,1614716,1517219,1068491,1278558,,,,,,,,,,50.3455295,19.2692339,https://ec.europa.eu/clima/ets/ohaDetails.do?accountID=92881&action=all&languageCode=en&registryCode=PL
PL456,Combustion of fuels,456,ELEKTROCIEPŁOWNIA ARCELORMITTAL ZDZIESZOWICE,A,20,PL-0395-05,ArcelorMittal Poland S.A.,2005-01-01,PL,Poland,,,2005,,Powstańców Śląskich 1,47-330,Zdzieszowice,362712,371400,329510,327009,354479,283569,301811,308685,288549,294651,282021,210979,252700,246566,208409,226211,,,,,,,,,,50.421521,18.129973,https://ec.europa.eu/clima/ets/ohaDetails.do?accountID=93251&action=all&languageCode=en&registryCode=PL
PL458,Combustion of fuels,458,ELEKTROCIEPŁOWNIA ARCELORMITTAL SOSNOWIEC,A,20,PL-0402-05,ArcelorMittal Poland S.A.,2005-01-01,PL,Poland,,,2005,,NIWECKA 1,42-200,KATOWICE,66402,66837,51985,47478,52724,46777,44976,45661,38685,41837,39109,35011,34757,30692,30669,39510,,,,,,,,,,50.2650982,19.1527927,https://ec.europa.eu/clima/ets/ohaDetails.do?accountID=93257&action=all&languageCode=en&registryCode=PL
PL846,"Production of lime, or calcination of dolomite/magnesite",846,Piece szybowe do wypału wapna,A,30,PL-0774-05,ArcelorMittal Refractories sp. z o.o.,2005-01-01,PL,Poland,,,2005,2018,Ujastek 1,30-969,Kraków,128433,137506,115731,45886,29735,46406,5148,,,,,,,,,,,,,,,,,,,50.0866911,20.0654551,https://ec.europa.eu/clima/ets/ohaDetails.do?accountID=93267&action=all&languageCode=en&registryCode=PL
PL847,"Production of lime, or calcination of dolomite/magnesite",847,Piec obrotowy do wypalania klinkieru dolomitowego,A,30,PL-0775-05,ArcelorMittal Refractories sp. z o.o.,2005-01-01,PL,Poland,,,2005,,Ujastek 1,30-969,Kraków,52455,45000,36304,24877,36546,28442,40635,26850,20927,22197,21998,34674,11934,,,,,,,,,,,,,50.0866911,20.0654551,https://ec.europa.eu/clima/ets/ohaDetails.do?accountID=93270&action=all&languageCode=en&registryCode=PL
PL848,Manufacture of ceramics,848,Piece tunelowe do wypalania materiałów ogniotrwały,A,32,PL-0776-05,ArcelorMittal Refractories sp. z o.o.,2005-01-01,PL,Poland,,,2005,,Ujastek 1,30-969,Kraków,9703,8570,9788,12865,12864,13950,12743,15616,16832,16501,15358,15578,13669,10797,9961,11047,,,,,,,,,,50.0866911,20.0654551,https://ec.europa.eu/clima/ets/ohaDetails.do?accountID=93271&action=all&languageCode=en&registryCode=PL
PL885,Production of pig iron or steel,885,WIELKI PIEC+STALOWNIA ARCELORMITTAL KRAKÓW,A,24,PL-0906-08,ArcelorMittal Poland S.A.,2005-01-01,PL,Poland,,,2008,,Ujastek 1,30-969,Kraków,,,1586155,848321,373477,649738,835041,861368,915182,900184,639066,1021555,916846,780574,4587,2518,,,,,,,,,,50.0866911,20.0654551,https://ec.europa.eu/clima/ets/ohaDetails.do?accountID=93404&action=all&languageCode=en&registryCode=PL
PL886,Production of pig iron or steel,886,WIELKI PIEC STALOWNIA ARCELORMITTAL DĄBROWA GÓRN.,A,24,PL-0907-08,ArcelorMittal Poland S.A.,2005-01-01,PL,Poland,,,2008,,J. Piłsudskiego 92,41-308,Dąbrowa Górnicza,,,3198708,1784222,2914880,2887000,2610653,2192758,2531252,2582521,2791813,2732272,2427068,2257932,2353268,2554130,,,,,,,,,,50.3455295,19.2692339,https://ec.europa.eu/clima/ets/ohaDetails.do?accountID=93408&action=all&languageCode=en&registryCode=PL
PL887,"Production of lime, or calcination of dolomite/magnesite",887,WAPNIALNIA ARCELORMITTAL DĄBROWA GÓRNICZA,A,30,PL-0908-08,ArcelorMittal Poland S.A.,2005-01-01,PL,Poland,,,2008,,J. Piłsudskiego 92,41-308,Dąbrowa Górnicza,,,165241,111598,150694,154787,174161,296153,355187,353168,330849,355998,343017,371022,319352,337762,,,,,,,,,,50.3455295,19.2692339,https://ec.europa.eu/clima/ets/ohaDetails.do?accountID=93411&action=all&languageCode=en&registryCode=PL
PL895,Production or processing of ferrous metals,895,WALCOWNIE,A,25,PL-0916-08,ArcelorMittal Warszawa Sp. z o.o.,2008-01-01,PL,Poland,,,2008,,Kasprowicza 132,01-949,Warszawa,,,42933,22858,32097,38912,34212,28700,31862,34906,34988,34474,33271,33850,28984,31548,,,,,,,,,,52.2926243,20.9277718,https://ec.europa.eu/clima/ets/ohaDetails.do?accountID=93436&action=all&languageCode=en&registryCode=PL
PL897,Production or processing of ferrous metals,897,WALCOWNIA ARCELORMITTAL DĄBROWA GÓRNICZA,A,25,PL-0918-08,ArcelorMittal Poland S.A.,2005-01-01,PL,Poland,,,2008,,J. Piłsudskiego 92,41-308,Dąbrowa Górnicza,,,423870,277353,303154,265086,190537,217893,214951,291088,268047,284594,258549,235710,221111,225873,,,,,,,,,,50.3455295,19.2692339,https://ec.europa.eu/clima/ets/ohaDetails.do?accountID=93443&action=all&languageCode=en&registryCode=PL
PL898,Production or processing of ferrous metals,898,WALCOWNIA ARCELORMITTAL KRAKÓW,A,25,PL-0919-08,ArcelorMittal Poland S.A.,2005-01-01,PL,Poland,,,2008,,Ujastek 1,30-969,Kraków,,,158948,128644,160210,164434,165959,177689,186933,195135,224432,244769,259109,218447,181286,199502,,,,,,,,,,50.0866911,20.0654551,https://ec.europa.eu/clima/ets/ohaDetails.do?accountID=93446&action=all&languageCode=en&registryCode=PL
PL899,Production or processing of ferrous metals,899,WALCOWNIA ARCELORMITTAL SOSNOWIEC,A,25,PL-0920-08,ArcelorMittal Poland S.A.,2005-01-01,PL,Poland,,,2008,,Niwecka  1,41-200,Sosnowiec,,,34899,31159,34036,34439,35954,39547,43025,44669,45560,46740,39171,39073,42487,45742,,,,,,,,,,50.2649289,19.153432,https://ec.europa.eu/clima/ets/ohaDetails.do?accountID=93451&action=all&languageCode=en&registryCode=PL
PL900,Production or processing of ferrous metals,900,OBRÓBKA METALI ŻELAZNYCH ARCELORMITTAL ŚWIĘTOCHŁOW,A,25,PL-0921-08,ArcelorMittal Poland S.A.,2008-01-01,PL,Poland,,,2008,,Metalowców 5,41-600,Świętochłowice,,,27094,25467,33369,33095,34732,34393,37066,36040,38140,38042,40280,39613,37682,38431,,,,,,,,,,50.2885072,18.9137651,https://ec.europa.eu/clima/ets/ohaDetails.do?accountID=93455&action=all&languageCode=en&registryCode=PL
PL928,Combustion of fuels,928,Walcownia Rur,A,20,PL-0953-08,ArcelorMittal Tubular Products Kraków,2008-01-01,PL,Poland,,,2008,,Ujastek 1,30-969,Kraków,,,18313,16826,17816,16050,16322,15309,16714,15440,18141,17580,18895,16620,12718,13310,,,,,,,,,,50.0866911,20.0654551,https://ec.europa.eu/clima/ets/ohaDetails.do?accountID=93536&action=all&languageCode=en&registryCode=PL
PL202611,Production or processing of ferrous metals,202611,Walcownia ArcelorMittal Chorzów,A,25,PL-1019-13,ArcelorMittal Poland S.A.,2013-01-01,PL,Poland,,,2013,,Metalowców 13,41-500,Chorzów,,,,,,,,8867,10550,9586,9567,9571,8062,7849,9003,10124,,,,,,,,,,50.3047105,18.9588568,https://ec.europa.eu/clima/ets/ohaDetails.do?accountID=107706&action=all&languageCode=en&registryCode=PL
RO43,Production or processing of ferrous metals,43,SC ARCELORMITTAL TUBULAR PRODUCTS ROMAN SA,A,25,126,SC ARCELORMITTAL TUBULAR PRODUCTS Roman SA,2021-04-21,RO,Romania,,,2007,,"Sos. Roman - Iasi, km 333",617135,Roman,,118299,107321,47639,81416,88968,88886,87095,88614,46750,36254,36060,37923,26815,18123,21705,,,,,,,,,,47.1584549,27.6014418,https://ec.europa.eu/clima/ets/ohaDetails.do?accountID=99664&action=all&languageCode=en&registryCode=RO
RO44,Production of pig iron or steel,44,Liberty Galati SA,A,24,63,SC Liberty Galati SA,2021-02-17,RO,Romania,,2018,2007,,Smardan1,800698,Galati,,9750598,7586062,3799190,4583475,4248582,3727343,3808207,3628982,4288727,4237696,3866638,4104923,,,,,,,,,,,,,45.4353208,28.0079945,https://ec.europa.eu/clima/ets/ohaDetails.do?accountID=99665&action=all&languageCode=en&registryCode=RO
RO45,Production of pig iron or steel,45,ARCELORMITTAL HUNEDOARA SA,A,24,103,SC ARCELORMITTAL HUNEDOARA SA,2021-03-18,RO,Romania,,,2007,,"DJ 687, Nr.4",331111,Hunedoara,,96994,55193,22289,35171,33348,43278,43808,51549,50533,53448,56706,52376,45314,41977,48709,,,,,,,,,,45.7358552,22.9149899,https://ec.europa.eu/clima/ets/ohaDetails.do?accountID=99666&action=all&languageCode=en&registryCode=RO
ES798,Production or processing of ferrous metals,798,Fábrica de Bergara,A,25,ES192005000938,"ARCELORMITTAL OLABERRÍA-BERGARA, S.L.U.",2005-06-09,ES,Spain,,,2005,,"C/Ibarra, 6",20570,Bergara (Guipúzcoa),60536,61033,49504,40325,29070,12916,,23120,27671,26819,28173,26902,24900,22622,19079,22302,,,,,,,,,,43.1043395,-2.4241524,https://ec.europa.eu/clima/ets/ohaDetails.do?accountID=98404&action=all&languageCode=en&registryCode=ES
ES801,Production of pig iron or steel,801,Fábrica de Zumarraga,A,24,ES192005000941,"ARCELORMITTAL OLABERRÍA-BERGARA, S.L.U.",2005-06-09,ES,Spain,,,2005,2016,Bº ARTIZ S/N,20700,Zumarraga (Guipúzcoa),126104,96184,75991,75107,81329,80974,75407,73125,83263,88322,19485,,,,,,,,,,,,,,,43.085954,-2.3147677,https://ec.europa.eu/clima/ets/ohaDetails.do?accountID=98405&action=all&languageCode=en&registryCode=ES
ES212,Production of pig iron or steel,212,"ARCELORMITTAL ESPAÑA, S.A.",A,24,ES033305000226,"ARCELORMITTAL ESPAÑA, S.A.",2005-06-09,ES,Spain,,,2005,,Factoria Aceralia Avilés,33468,Avilés y Gijón (Asturias),5488949,5639976,5405474,4385832,5291346,4985828,4587154,5091744,4961301,5907100,5718833,5307741,5646785,5097167,3911930,5262482,,,,,,,,,,43.5585475,-5.8922372,https://ec.europa.eu/clima/ets/ohaDetails.do?accountID=98603&action=all&languageCode=en&registryCode=ES
ES799,Production of pig iron or steel,799,Fábrica de Olaberria,A,24,ES192005000939,"ARCELORMITTAL OLABERRÍA-BERGARA, S.L.U.",2005-06-09,ES,Spain,,,2005,,"CTRA. NAC. I MADRID-IRÚN, Km 417",20212,Olaberria (Guipúzcoa),108726,114709,93893,67107,86564,95930,102263,92208,101918,107130,102783,105486,106687,103520,96552,111009,,,,,,,,,,43.2514521,-2.0223881,https://ec.europa.eu/clima/ets/ohaDetails.do?accountID=98749&action=all&languageCode=en&registryCode=ES
ES1039,Production or processing of ferrous metals,1039,"ArcelorMittal España, S.A.-Fáb. Etxebarri",A,25,ES194801001198,"ARCELORMITTAL ESPAÑA, S.A.",2007-04-10,ES,Spain,,,2006,,"EGETIAGA URIBARRI, 34",48450,Etxebarri (Vizcaya),15899,15969,17420,13919,16475,14627,14791,23905,22803,27105,23984,27628,29437,28264,25392,26752,,,,,,,,,,43.245637,-2.8930297,https://ec.europa.eu/clima/ets/ohaDetails.do?accountID=98798&action=all&languageCode=en&registryCode=ES
ES711,Installations for the production of pig iron or steel (primary or secondary fusion) including continuous casting,711,"ArcelorMittal Madrid, S.L.",A,5,ES152805000837,"ARCELORMITTAL MADRID, S.L.",2005-06-09,ES,Spain,,,2005,2012,"Ctra. Toledo, Km. 9,200",28021,Madrid (Madrid),72612,72619,70765,42553,55782,43292,,,,,,,,,,,,,,,,,,,,40.3479954,-3.7229276,https://ec.europa.eu/clima/ets/ohaDetails.do?accountID=99135&action=all&languageCode=en&registryCode=ES
ES802,Production of pig iron or steel,802,"Arcelormittal Sestao, S.L.U",A,24,ES194805000942,"ARCELORMITTAL SESTAO, S.L.U.",2005-06-09,ES,Spain,,,2005,,"C/ CHAVARRI, 6",48910,Sestao (Vizcaya),259189,279206,243295,168184,230288,165047,53307,117709,115885,105411,21973,57671,63691,56894,39377,104879,,,,,,,,,,43.313433,-3.0109258,https://ec.europa.eu/clima/ets/ohaDetails.do?accountID=99157&action=all&languageCode=en&registryCode=ES
ES988,Production or processing of ferrous metals,988,"ARCELORMITTAL ESPAÑA, S.A.",A,25,ES104601001147,"ARCELORMITTAL ESPAÑA, S.A.",2007-04-10,ES,Spain,,,2006,,"Carretera Acceso IV, Planta p.km. 3,9",46520,Sagunto  (Valencia),15882,16334,13440,8919,11557,10693,10471,65766,71802,71519,77245,74607,76130,70258,54766,67291,,,,,,,,,,39.4826443,-0.3751665,https://ec.europa.eu/clima/ets/ohaDetails.do?accountID=99449&action=all&languageCode=en&registryCode=ES
ES205568,Production or processing of ferrous metals,205568,"ArcelorMittal Lesaka, S.A.",A,25,ES18310610653,"ARCELORMITTAL ESPAÑA, S.A.",2011-06-21,ES,Spain,,,2013,,"Arratzubi, 5",31770,Lesaka,,,,,,,,19253,20556,19678,19773,20317,20654,19903,16614,20542,,,,,,,,,,43.2473876,-1.7021937,https://ec.europa.eu/clima/ets/ohaDetails.do?accountID=110795&action=all&languageCode=en&registryCode=ES
